{
	"company": {
		"name": "Cloud 8",
		"logo": "images/logo.png",
		"location": {
			"lat": 34.1022,
			"lng": -118.2737
		},
		"manager": {
			"name": "Hugo",
			"icon": "images/manager.jpg"
		}
	},
	"objects": [{
		"assignee": {
			"name": "Joe",
			"icon": "images/joe.png",
			"position": {
				"lat": 34.0723,
				"lng": -118.2436
			}
		},
		"location": {
			"lat": 34.0723,
			"lng": -118.2436,
			"address": "17985 Pacific Coast Hwy, Pacific Palisades, CA 90272"
		},
		"status": "blocked",
		"statusIcon": "images/block.png",
		"targetTime": {
			"start": "7:00a",
			"end": "9:00a"
		},
		"actualTime": {
			"start": "7:00a"
		}
	},{
		"assignee": {
			"name": "Jose",
			"icon": "images/jose.jpg",
			"position": {
				"lat": 34.0825,
				"lng": -118.2239
			}
		},
		"location": {
			"lat": 34.0825,
			"lng": -118.2239,
			"address": "111 S Grand Ave, Los Angeles, CA 90012"
		},
		"status": "starting",
		"statusIcon": "images/progress_1.png",
		"targetTime": {
			"start": "7:00a",
			"end": "9:00a"
		}
	},{
		"assignee": {
			"name": "Mike",
			"icon": "images/mike.png",
			"position": {
				"lat": 34.1233,
				"lng": -118.25436
			}
		},
		"location": {
			"lat": 34.1233,
			"lng": -118.25436,
			"address": "City Hall"
		},
		"status": "done",
		"statusIcon": "images/check.png",
		"targetTime": {
			"start": "7:00a",
			"end": "9:00a"
		},
		"actualTime": {
			"start": "7:05a",
			"end": "9:10a"
		}
	}, {
		"location": {
			"lat": 34.1313,
			"lng": -118.24336,
			"address": "Central Market"

		},
		"status": "new",
		"statusIcon": "images/progress_0.png",
		"targetTime": {
			"start": "7:00a",
			"end": "9:00a"
		}
	}]
}
